{
    "aldrich-park": {
        "coords": {
            "lat": 33.64545045673266,
            "lng": -117.8412691008788
        },
        "name": "Aldrich Park",
        "src": "aldrich-park.jpeg"
    },
    "anteater-recreation-center": {
        "coords": {
            "lat": 33.6436097746018,
            "lng": -117.82869453377216
        },
        "name": "Anteater Recreation Center",
        "src": "anteater-recreation-center.jpeg"
    },
    "donald-bren-hall": {
        "coords": {
            "lat": 33.64356384080844,
            "lng": -117.84188477348097
        },
        "name": "Donald Bren Hall",
        "src": "donald-bren-hall.jpeg"
    },
    "founders-court": {
        "coords": {
            "lat": 33.64683690973797,
            "lng": -117.84452150193388
        },
        "name": "Founders Court",
        "src": "founders-court.jpeg"
    },
    "jao-family-sculpture-garden": {
        "coords": {
            "lat": 33.64785243710442,
            "lng": -117.84294187534339
        },
        "name": "Jao Family Sculpture Garden",
        "src": "jao-family-sculpture-garden.jpeg"
    },
    "middle-earth-towers": {
        "coords": {
            "lat": 33.64523162686426,
            "lng": -117.83971840591039
        },
        "name": "Middle Earth Towers",
        "src": "middle-earth-towers.jpeg"
    },
    "science-library": {
        "coords": {
            "lat": 33.64587267206292,
            "lng": -117.84580555152785
        },
        "name": "Science Library",
        "src": "science-library.jpeg"
    }
}